{
  "metadata": {
    "totalStores": 297,
    "lastUpdated": "2025-07-07T09:33:18.441Z",
    "source": "Seattle Coffee Company Official Website - Manual Copy/Paste",
    "countries": [
      "South Africa",
      "Namibia",
      ""
    ],
    "provinces": [
      "Western Cape",
      "KwaZulu-Natal",
      "Gauteng",
      "Eastern Cape",
      "Queenstown",
      "Sandton",
      "Roodepoort",
      "Port Alfred",
      "Westville",
      "Potchefstroom",
      "Dolphin Coast",
      "Polokwane",
      "Midrand",
      "Harrismith",
      "Pietermaritzburg",
      "Bloemfontein",
      "Bluff",
      "Stellenbosch",
      "Bredasdorp",
      "Brits",
      "Caledon",
      "Centurion",
      "Northern Cape",
      "Graaff Reinet",
      "Rustenburg",
      "Randburg",
      "Pinetown",
      "Ermelo",
      "Gauteng Province",
      "Germiston",
      "Dullstroom",
      "George",
      "Berea",
      "Gillitts",
      "uMhlanga",
      "Hillcrest",
      "Windhoek",
      "Hilton",
      "Middelburg",
      "Edenvale",
      "Kimberley",
      "Kingsburgh",
      "Kleinmond",
      "Knysna",
      "Komatipoort",
      "Langebaan",
      "Cnr Winnie Mandela Dr & Mulbarton Rd",
      "Alberton",
      "Malmesbury",
      "Mashishing",
      "Machadadorp",
      "Montana",
      "Fourways",
      "Worcester",
      "Roodepot",
      "Mount Edgecombe",
      "Nelspruit",
      "Mbombela",
      "Krugersdrop ,1739",
      "",
      "Emalahleni",
      "Paarl",
      "Oudtshoorn",
      "Phalaborwa",
      "Plettenberg bay",
      "Worcester Central",
      "Boksburg",
      "Riviersonderend",
      "Louis Trichardt",
      "Parklands",
      "St Francis",
      "Standerton",
      "Riversideview",
      "Somerset West",
      "Jeffreys Bay",
      "Vredenburg",
      "Sandbaai",
      "White River",
      "Witkoppen",
      "Hartbeespoort",
      "Zebetiela"
    ]
  },
  "stores": [
    {
      "id": 1,
      "type": "icon cafe",
      "name": "Twenty on Vineyard",
      "address": "20 Vineyard Rd, Claremont, Cape Town, 7708",
      "province": "Western Cape",
      "country": "South Africa",
      "coordinates": null
    },
    {
      "id": 2,
      "type": "icon take away",
      "name": "45th Cutting FreshStop",
      "address": "928 King Cetshwayo Hwy, Sherwood, Durban, 4091",
      "province": "KwaZulu-Natal",
      "country": "South Africa",
      "coordinates": null
    },
    {
      "id": 3,
      "type": "icon take away",
      "name": "A Club FreshStop",
      "address": "Cnr. 273 Lynnwood + Brooklyn Rd, Menlo Park, Pretoria, 0081",
      "province": "Gauteng",
      "country": "South Africa",
      "coordinates": null
    },
    {
      "id": 4,
      "type": "icon take away",
      "name": "Abbotsford Sasol Delight",
      "address": "10 Morris Rd, Abbotsford, East London",
      "province": "Eastern Cape",
      "country": "South Africa",
      "coordinates": null
    },
    {
      "id": 5,
      "type": "store ame tak",
      "name": "Access Retail Park Container",
      "address": "Cnr. Buffelsfontein Rd + Newcombe Ave, Walmer, Gqeberha, 6070",
      "province": "Eastern Cape",
      "country": "South Africa",
      "coordinates": null
    },
    {
      "id": 6,
      "type": "icon take away",
      "name": "Airport City Astron Energy",
      "address": "Cnr Borcherds Quarry Rd, Montreal Dr, Airport City Precinct, Cape Town, 7525",
      "province": "Western Cape",
      "country": "South Africa",
      "coordinates": null
    },
    {
      "id": 7,
      "type": "icon take away",
      "name": "Alan Hahn FreshStop",
      "address": "179 Cathcart Rd, Gonubie, Queenstown, 5320",
      "province": "Queenstown",
      "country": "South Africa",
      "coordinates": null
    },
    {
      "id": 8,
      "type": "icon cafe",
      "name": "Alice Lane",
      "address": "11 Alice Ln, Sandhurst, Sandton, 2196",
      "province": "Sandton",
      "country": "South Africa",
      "coordinates": null
    },
    {
      "id": 9,
      "type": "icon take away",
      "name": "Allen's Nek Sasol Delight",
      "address": "Cnr Jim Fouche + Piet Retief Rd, Allen's Nek, Roodepoort, 1709",
      "province": "Roodepoort",
      "country": "South Africa",
      "coordinates": null
    },
    {
      "id": 10,
      "type": "icon take away",
      "name": "Amandelboom FreshStop",
      "address": "702 Crevilliea St, Doornpoort, Pretoria, 0186",
      "province": "Gauteng",
      "country": "South Africa",
      "coordinates": null
    },
    {
      "id": 11,
      "type": "icon take away",
      "name": "Andy's Service Station FreshStop",
      "address": "80 Southwell Rd, Port Alfred, 6170",
      "province": "Port Alfred",
      "country": "South Africa",
      "coordinates": null
    },
    {
      "id": 12,
      "type": "icon take away",
      "name": "Atholl Heights FreshStop",
      "address": "174-178 Blair Atholl Dr, Westville, 3629",
      "province": "Westville",
      "country": "South Africa",
      "coordinates": null
    },
    {
      "id": 13,
      "type": "icon take away",
      "name": "Baillie Park Sasol Delight",
      "address": "2 Parys Ave, Baillie Park, Potchefstroom, 2531",
      "province": "Potchefstroom",
      "country": "South Africa",
      "coordinates": null
    },
    {
      "id": 14,
      "type": "icon take away",
      "name": "Ballito Food Lover's Market",
      "address": "The Circle Business Park, Douglas Crowe Dr, Dolphin Coast, 4420",
      "province": "Dolphin Coast",
      "country": "South Africa",
      "coordinates": null
    },
    {
      "id": 15,
      "type": "icon cafe",
      "name": "Ballito Junction",
      "address": "Leonora Dr, Ballito, Dolphin Coast, 4399",
      "province": "Dolphin Coast",
      "country": "South Africa",
      "coordinates": null
    },
    {
      "id": 16,
      "type": "icon take away",
      "name": "Baobab Sasol Delight",
      "address": "3 Aloe Vera St, Polokwane",
      "province": "Polokwane",
      "country": "South Africa",
      "coordinates": null
    },
    {
      "id": 17,
      "type": "icon take away",
      "name": "Beacon Bay FreshStop",
      "address": "1 Bonza Bay Rd, Beacon Bay North, East London, 5241",
      "province": "Eastern Cape",
      "country": "South Africa",
      "coordinates": null
    },
    {
      "id": 18,
      "type": "icon cafe",
      "name": "Beaulieu College",
      "address": "107 Maple Rd, Kyalami AH, Midrand, 1684",
      "province": "Midrand",
      "country": "South Africa",
      "coordinates": null
    },
    {
      "id": 19,
      "type": "icon cafe",
      "name": "Bedford Centre",
      "address": "Smith Rd, Bedfordview, Johannesburg, 2007",
      "province": "Gauteng",
      "country": "South Africa",
      "coordinates": null
    },
    {
      "id": 20,
      "type": "icon cafe",
      "name": "Belvedere",
      "address": "Cnr Belvedere Rd + Wyndover Rd, Rondebosch, Cape Town",
      "province": "Western Cape",
      "country": "South Africa",
      "coordinates": null
    },
    {
      "id": 21,
      "type": "icon cafe",
      "name": "Bergview",
      "address": "N3 Warden St, Lotusville, Harrismith, 9880",
      "province": "Harrismith",
      "country": "South Africa",
      "coordinates": null
    },
    {
      "id": 22,
      "type": "unknown",
      "name": "Bird Sanctuary FreshStop",
      "address": "9 Armitage Rd, Chase Valley, Pietermaritzburg, 3201",
      "province": "Pietermaritzburg",
      "country": "South Africa",
      "coordinates": null
    },
    {
      "id": 23,
      "type": "unknown",
      "name": "Delta FreshStop",
      "address": "80 Zastron St, Bloemfontein Central, Bloemfontein, 9301",
      "province": "Bloemfontein",
      "country": "South Africa",
      "coordinates": null
    },
    {
      "id": 24,
      "type": "unknown",
      "name": "Blue Lagoon FreshStop",
      "address": "80 Athlone Dr, Stamford Hill, Durban, 4001",
      "province": "KwaZulu-Natal",
      "country": "South Africa",
      "coordinates": null
    },
    {
      "id": 25,
      "type": "unknown",
      "name": "Bluff FreshStop",
      "address": "1 Cherwell Rd, Fynnlands, Bluff, 4052",
      "province": "Bluff",
      "country": "South Africa",
      "coordinates": null
    },
    {
      "id": 26,
      "type": "unknown",
      "name": "Boardwalk",
      "address": "7 Olympus Dr, Garsfontein, Pretoria, 0042",
      "province": "Gauteng",
      "country": "South Africa",
      "coordinates": null
    },
    {
      "id": 27,
      "type": "unknown",
      "name": "Boland Motors FreshStop",
      "address": "248 Bird Str, Tenantville, Stellenbosch, 7600",
      "province": "Stellenbosch",
      "country": "South Africa",
      "coordinates": null
    },
    {
      "id": 28,
      "type": "unknown",
      "name": "Booysens FreshStop",
      "address": "Cnr. Long Str + Booysens Rd, Johannesburg, 2091",
      "province": "Gauteng",
      "country": "South Africa",
      "coordinates": null
    },
    {
      "id": 29,
      "type": "unknown",
      "name": "Boshoff Str FreshStop",
      "address": "21 Boshoff St, Pietermaritzburg, 3201",
      "province": "Pietermaritzburg",
      "country": "South Africa",
      "coordinates": null
    },
    {
      "id": 30,
      "type": "unknown",
      "name": "Bothasig Container",
      "address": "Food Lover's Market, 1 Link Rd, Bothasig, Cape Town, 7441",
      "province": "Western Cape",
      "country": "South Africa",
      "coordinates": null
    },
    {
      "id": 31,
      "type": "unknown",
      "name": "Bowling Sasol Delight",
      "address": "Cnr. Bowling Ave + Dartfield Rd, Sandown, Sandton, 2090",
      "province": "Sandton",
      "country": "South Africa",
      "coordinates": null
    },
    {
      "id": 32,
      "type": "unknown",
      "name": "Brackenfell Food Lover's Market",
      "address": "Brackenfell Retail Park, De Viliers Str, Brackenfell, Cape Town, 7560",
      "province": "Western Cape",
      "country": "South Africa",
      "coordinates": null
    },
    {
      "id": 33,
      "type": "unknown",
      "name": "Bredasdorp FreshStop",
      "address": "Cnr. Long St + All Saints Rd, Bredasdorp, 7280",
      "province": "Bredasdorp",
      "country": "South Africa",
      "coordinates": null
    },
    {
      "id": 34,
      "type": "unknown",
      "name": "Brits FreshStop",
      "address": "17 Hendrik Verwoerd Ave, Brits, 0250",
      "province": "Brits",
      "country": "South Africa",
      "coordinates": null
    },
    {
      "id": 35,
      "type": "unknown",
      "name": "Broadacres",
      "address": "7 Cedar Rd, Broadacres Park, Johannesburg, 2021",
      "province": "Gauteng",
      "country": "South Africa",
      "coordinates": null
    },
    {
      "id": 36,
      "type": "unknown",
      "name": "Brooklyn Exclusive Books",
      "address": "Cnr. Veale + Fehrsen Str, New Muckleneuk, Pretoria, 0181",
      "province": "Gauteng",
      "country": "South Africa",
      "coordinates": null
    },
    {
      "id": 37,
      "type": "unknown",
      "name": "Buffelspark FreshStop",
      "address": "R104 Buffelspoort, Marikana, Gauteng, 0284",
      "province": "Gauteng",
      "country": "South Africa",
      "coordinates": null
    },
    {
      "id": 38,
      "type": "unknown",
      "name": "Bulwer FreshStop",
      "address": "159 Bulwer Rd, Glenwood, Durban, 4001",
      "province": "KwaZulu-Natal",
      "country": "South Africa",
      "coordinates": null
    },
    {
      "id": 39,
      "type": "unknown",
      "name": "Caledon FreshStop",
      "address": "1 Nerina St, Caledon, 7230",
      "province": "Caledon",
      "country": "South Africa",
      "coordinates": null
    },
    {
      "id": 40,
      "type": "unknown",
      "name": "Cambridge FreshStop",
      "address": "25 Witkoppen Rd, Paulshof, Sandton, 2090",
      "province": "Sandton",
      "country": "South Africa",
      "coordinates": null
    },
    {
      "id": 41,
      "type": "unknown",
      "name": "Camps Bay FreshStop",
      "address": "1 Rontree Ave, Bakoven, Cape Town, 8005",
      "province": "Western Cape",
      "country": "South Africa",
      "coordinates": null
    },
    {
      "id": 42,
      "type": "unknown",
      "name": "Canal Crossing FreshStop",
      "address": "52 Nelson Mandela Dr, Potchefstroom, 2520",
      "province": "Potchefstroom",
      "country": "South Africa",
      "coordinates": null
    },
    {
      "id": 43,
      "type": "unknown",
      "name": "Canal Walk",
      "address": "Century Blvd, Century City, Cape Town, 7446",
      "province": "Western Cape",
      "country": "South Africa",
      "coordinates": null
    },
    {
      "id": 44,
      "type": "unknown",
      "name": "Cape Road",
      "address": "299 Cape Rd, Newton Park, Gqeberha, 6055",
      "province": "Eastern Cape",
      "country": "South Africa",
      "coordinates": null
    },
    {
      "id": 45,
      "type": "unknown",
      "name": "Careno FreshStop",
      "address": "Cnr Main Rd + Lourens Rivier Rd, Strand, Cape Town, 7140",
      "province": "Western Cape",
      "country": "South Africa",
      "coordinates": null
    },
    {
      "id": 46,
      "type": "unknown",
      "name": "Castle Gate",
      "address": "455 Koedoesnek Ave, Waterkloof Ridge, Pretoria",
      "province": "Gauteng",
      "country": "South Africa",
      "coordinates": null
    },
    {
      "id": 47,
      "type": "unknown",
      "name": "Cavendish Square",
      "address": "1 Dreyer St, Claremont, Cape Town, 7708",
      "province": "Western Cape",
      "country": "South Africa",
      "coordinates": null
    },
    {
      "id": 48,
      "type": "unknown",
      "name": "Cedar Rd FreshStop",
      "address": "10 Cedar Rd, Roospark AH, Sandton, 2090",
      "province": "Sandton",
      "country": "South Africa",
      "coordinates": null
    },
    {
      "id": 49,
      "type": "unknown",
      "name": "Centenery FreshStop",
      "address": "1 Centenary Rd, Lorraine, Gqeberha, 6070",
      "province": "Eastern Cape",
      "country": "South Africa",
      "coordinates": null
    },
    {
      "id": 50,
      "type": "unknown",
      "name": "Century City Convention Centre",
      "address": "4 Energy Ln, Century City, Cape Town, 7446",
      "province": "Western Cape",
      "country": "South Africa",
      "coordinates": null
    },
    {
      "id": 51,
      "type": "unknown",
      "name": "Chapmans Peak",
      "address": "1472 Main Rd, Hout Bay, Cape Town, 7806",
      "province": "Western Cape",
      "country": "South Africa",
      "coordinates": null
    },
    {
      "id": 52,
      "type": "unknown",
      "name": "Chilli On Top Food Lover's Market",
      "address": "Cnr. Rivonia + Leeuwkop Rd, Sunninghill, Johannesburg, 2191",
      "province": "Gauteng",
      "country": "South Africa",
      "coordinates": null
    },
    {
      "id": 53,
      "type": "unknown",
      "name": "Christiaan De Wet FreshStop",
      "address": "89 Christiaan de Wet Rd, Randpark Ridge, Johannesburg, 2156",
      "province": "Gauteng",
      "country": "South Africa",
      "coordinates": null
    },
    {
      "id": 54,
      "type": "unknown",
      "name": "Church Square",
      "address": "32 Parliament Str, Cape Town City Centre, Cape Town 8000",
      "province": "Western Cape",
      "country": "South Africa",
      "coordinates": null
    },
    {
      "id": 55,
      "type": "unknown",
      "name": "Circle Centre Sasol Delight",
      "address": "Theron Str + Monavino AH, Centurion, 0157",
      "province": "Centurion",
      "country": "South Africa",
      "coordinates": null
    },
    {
      "id": 56,
      "type": "unknown",
      "name": "Clubview",
      "address": "94 Lyttelton Rd, Clubview, Centurion, 0014",
      "province": "Centurion",
      "country": "South Africa",
      "coordinates": null
    },
    {
      "id": 57,
      "type": "unknown",
      "name": "Colbyn FreshStop",
      "address": "1340 Stanza Bopape Str, Colbyn, Pretoria, 0083",
      "province": "Gauteng",
      "country": "South Africa",
      "coordinates": null
    },
    {
      "id": 58,
      "type": "unknown",
      "name": "Colesburg FreshStop",
      "address": "N1 Colesburg, Northern Cape, 9795",
      "province": "Northern Cape",
      "country": "South Africa",
      "coordinates": null
    },
    {
      "id": 59,
      "type": "unknown",
      "name": "College Motors FreshStop",
      "address": "29 Church St, Graaff Reinet, 6280",
      "province": "Graaff Reinet",
      "country": "South Africa",
      "coordinates": null
    },
    {
      "id": 60,
      "type": "unknown",
      "name": "Comaro Food Lover's Market",
      "address": "Comaro Crossing Oakdene, Cnr. Oak + Boundary Rd, Johannesburg, 2000",
      "province": "Gauteng",
      "country": "South Africa",
      "coordinates": null
    },
    {
      "id": 61,
      "type": "unknown",
      "name": "Constantia Village",
      "address": "Spaanschemat River Rd, Constantia, Cape Town, 7806",
      "province": "Western Cape",
      "country": "South Africa",
      "coordinates": null
    },
    {
      "id": 62,
      "type": "unknown",
      "name": "Cornerstone Food Lover's Market",
      "address": "Cornerstone Lifestyle Centre, Cnr Faisal Mafa Dr + Augrabies Ave, Cashan, Rustenburg, 2999",
      "province": "Rustenburg",
      "country": "South Africa",
      "coordinates": null
    },
    {
      "id": 63,
      "type": "unknown",
      "name": "Cotswold Downs FreshStop",
      "address": "105 Inanda Rd, Pinetown NU, Durban, 3610",
      "province": "KwaZulu-Natal",
      "country": "South Africa",
      "coordinates": null
    },
    {
      "id": 64,
      "type": "unknown",
      "name": "Craighall",
      "address": "382 Jan Smuts Ave, Randburg, Johannesburg, 2194",
      "province": "Gauteng",
      "country": "South Africa",
      "coordinates": null
    },
    {
      "id": 65,
      "type": "unknown",
      "name": "Cresta Crossing",
      "address": "285 Beyers Naud√© Dr, Blackheath, Randburg, 2195",
      "province": "Randburg",
      "country": "South Africa",
      "coordinates": null
    },
    {
      "id": 66,
      "type": "unknown",
      "name": "Crompton FreshStop",
      "address": "136 Crompton Str, Pinetown, 3610",
      "province": "Pinetown",
      "country": "South Africa",
      "coordinates": null
    },
    {
      "id": 67,
      "type": "unknown",
      "name": "Cumberland Motors FreshStop",
      "address": "113 Cumberland Ave, Bryanston, Sandton, 2191",
      "province": "Sandton",
      "country": "South Africa",
      "coordinates": null
    },
    {
      "id": 68,
      "type": "unknown",
      "name": "Cyrildene FreshStop",
      "address": "1 Cooper St, Cyrildene, Johannesburg, 2198",
      "province": "Gauteng",
      "country": "South Africa",
      "coordinates": null
    },
    {
      "id": 69,
      "type": "unknown",
      "name": "De Oude Poskantoor",
      "address": "3 Plein Str, Stellenbosch Central, Stellenbosch, 7600",
      "province": "Stellenbosch",
      "country": "South Africa",
      "coordinates": null
    },
    {
      "id": 70,
      "type": "unknown",
      "name": "Denne Motors FreshStop",
      "address": "Cnr. Joubert + Murray Str, Ermelo, 2351",
      "province": "Ermelo",
      "country": "South Africa",
      "coordinates": null
    },
    {
      "id": 71,
      "type": "unknown",
      "name": "Doncaster Motors FreshStop",
      "address": "Cnr. Doncaster Rd + Punters Way, Kenilworth, Cape Town, 7708",
      "province": "Western Cape",
      "country": "South Africa",
      "coordinates": null
    },
    {
      "id": 72,
      "type": "unknown",
      "name": "Doornpoort FreshStop",
      "address": "503 Airport Rd, Doornpoort, Gauteng Province, 0017",
      "province": "Gauteng Province",
      "country": "South Africa",
      "coordinates": null
    },
    {
      "id": 73,
      "type": "unknown",
      "name": "Dorp Street",
      "address": "54 Dorp St, Stellenbosch Central, Cape Town, 7600",
      "province": "Western Cape",
      "country": "South Africa",
      "coordinates": null
    },
    {
      "id": 74,
      "type": "unknown",
      "name": "Drive Inn FreshStop",
      "address": "60 Black Reef Rd, Norton Small Farms, Germiston, 1401",
      "province": "Germiston",
      "country": "South Africa",
      "coordinates": null
    },
    {
      "id": 75,
      "type": "unknown",
      "name": "Dullstroom",
      "address": "Cnr. Naledi Dr. + Beelaerts St, Dullstroom, 1110",
      "province": "Dullstroom",
      "country": "South Africa",
      "coordinates": null
    },
    {
      "id": 76,
      "type": "unknown",
      "name": "Durbanville FreshStop",
      "address": "4 Wellington Rd, Durbanville, Cape Town, 7550",
      "province": "Western Cape",
      "country": "South Africa",
      "coordinates": null
    },
    {
      "id": 77,
      "type": "unknown",
      "name": "George Central Astron Energy",
      "address": "13 Courtenay St, George Central, George, 6530",
      "province": "George",
      "country": "South Africa",
      "coordinates": null
    },
    {
      "id": 78,
      "type": "unknown",
      "name": "Edenvale FreshStop",
      "address": "21 Van Riebeeck Ave, Edenvale, Johannesburg, 1609",
      "province": "Gauteng",
      "country": "South Africa",
      "coordinates": null
    },
    {
      "id": 79,
      "type": "unknown",
      "name": "Eikenhof FreshStop",
      "address": "Cnr. R550 + R82 Eikenhof, Johannesburg South 1872",
      "province": "Gauteng",
      "country": "South Africa",
      "coordinates": null
    },
    {
      "id": 80,
      "type": "unknown",
      "name": "Eloffsdal FreshStop",
      "address": "647 Paul Kruger St, Eloffsdal, Gauteng Province, 0084",
      "province": "Gauteng Province",
      "country": "South Africa",
      "coordinates": null
    },
    {
      "id": 81,
      "type": "unknown",
      "name": "Emfuleni FreshStop",
      "address": "Cnr. Tanner + McCowan Str, Vanderbijlpark, Gauteng, 1900",
      "province": "Gauteng",
      "country": "South Africa",
      "coordinates": null
    },
    {
      "id": 82,
      "type": "unknown",
      "name": "Equestrian",
      "address": "1 Dahlia Rd, Kyalami, Johannesburg, 1684",
      "province": "Gauteng",
      "country": "South Africa",
      "coordinates": null
    },
    {
      "id": 83,
      "type": "unknown",
      "name": "Fairlands FreshStop",
      "address": "114 14th Ave, Fairland, Randburg, 2030",
      "province": "Randburg",
      "country": "South Africa",
      "coordinates": null
    },
    {
      "id": 84,
      "type": "unknown",
      "name": "Farmyard",
      "address": "Cnr. Munnik & School Rd, Bendor, Polokwane, 0700",
      "province": "Polokwane",
      "country": "South Africa",
      "coordinates": null
    },
    {
      "id": 85,
      "type": "unknown",
      "name": "Featherbooke Sasol Delight",
      "address": "Cnr Hendrick Potgieter + Furrow rd, Krugersdorp, Roodepoort, 1724",
      "province": "Roodepoort",
      "country": "South Africa",
      "coordinates": null
    },
    {
      "id": 86,
      "type": "unknown",
      "name": "Ferndale Food Lover's Market",
      "address": "Republic Rd, President Ridge, Randburg, 2194",
      "province": "Randburg",
      "country": "South Africa",
      "coordinates": null
    },
    {
      "id": 87,
      "type": "unknown",
      "name": "Ferrucio FreshStop",
      "address": "Cnr. Olympia Ave + 11th St, Parkwood, Sandton, 2090",
      "province": "Sandton",
      "country": "South Africa",
      "coordinates": null
    },
    {
      "id": 88,
      "type": "unknown",
      "name": "Florida Road",
      "address": "202 Florida Rd, Windermere, Berea, 4001",
      "province": "Berea",
      "country": "South Africa",
      "coordinates": null
    },
    {
      "id": 89,
      "type": "unknown",
      "name": "Bank City Food Lover's Market",
      "address": "1 First Pl, Retail Pritchard Str, Bank City, Johannesburg, 2000",
      "province": "Gauteng",
      "country": "South Africa",
      "coordinates": null
    },
    {
      "id": 90,
      "type": "unknown",
      "name": "Fourways Container",
      "address": "Cnr. Witkoppen Rd + Cedar Rd, Sandton, Johannesburg, 2055",
      "province": "Gauteng",
      "country": "South Africa",
      "coordinates": null
    },
    {
      "id": 91,
      "type": "unknown",
      "name": "Fourways Mall",
      "address": "Cnr. William Nicol Dr. + Fourways Blvd, Fourways, Johannesburg, 2191",
      "province": "Gauteng",
      "country": "South Africa",
      "coordinates": null
    },
    {
      "id": 92,
      "type": "unknown",
      "name": "Garden Route Mall Food Lover's Market",
      "address": "Eastern Ext, Knysna Rd, George, 6529",
      "province": "George",
      "country": "South Africa",
      "coordinates": null
    },
    {
      "id": 93,
      "type": "unknown",
      "name": "Gardens FreshStop",
      "address": "3 Malibongwe Dr, Linden, Johannesburg, 2195",
      "province": "Gauteng",
      "country": "South Africa",
      "coordinates": null
    },
    {
      "id": 94,
      "type": "unknown",
      "name": "Garsfontein FreshStop",
      "address": "469 Winifred Yell Str, Garsfontein, Pretoria, 0042",
      "province": "Gauteng",
      "country": "South Africa",
      "coordinates": null
    },
    {
      "id": 95,
      "type": "unknown",
      "name": "Gateway Container",
      "address": "19 Gateway Centre, Old Johannesburg Rd, Centurion, 0154",
      "province": "Gauteng",
      "country": "South Africa",
      "coordinates": null
    },
    {
      "id": 96,
      "type": "unknown",
      "name": "Genesis on Fairmount",
      "address": "5 Bradfield Dr, Fairmount, Johannesburg, 2192",
      "province": "Gauteng",
      "country": "South Africa",
      "coordinates": null
    },
    {
      "id": 97,
      "type": "unknown",
      "name": "Gillitts FreshStop",
      "address": "15 Old Main Rd, Clifton Park, Gillitts, 3610",
      "province": "Gillitts",
      "country": "South Africa",
      "coordinates": null
    },
    {
      "id": 98,
      "type": "unknown",
      "name": "Glenanda FreshStop",
      "address": "Cnr. Vorster + Surmon Ave, Glenanda, Johannesburg, 2091",
      "province": "Gauteng",
      "country": "South Africa",
      "coordinates": null
    },
    {
      "id": 99,
      "type": "unknown",
      "name": "Glenview FreshStop",
      "address": "43 Ashley Ave, Glen Ashley, Durban, 4001",
      "province": "KwaZulu-Natal",
      "country": "South Africa",
      "coordinates": null
    },
    {
      "id": 100,
      "type": "unknown",
      "name": "GLJ Motors FreshStop",
      "address": "75 Pretorius Str, Pretoria Central, Pretoria, 0002",
      "province": "Gauteng",
      "country": "South Africa",
      "coordinates": null
    },
    {
      "id": 101,
      "type": "unknown",
      "name": "Gonubie FreshStop",
      "address": "Main Rd, Gonubie, East London, 5256",
      "province": "Eastern Cape",
      "country": "South Africa",
      "coordinates": null
    },
    {
      "id": 102,
      "type": "unknown",
      "name": "Goodwill FreshStop",
      "address": "3 Hanover St, Selby, Johannesburg, 2001",
      "province": "Gauteng",
      "country": "South Africa",
      "coordinates": null
    },
    {
      "id": 103,
      "type": "unknown",
      "name": "Granada Centre",
      "address": "16 Chartwell Dr, Umhlanga, uMhlanga, 4320",
      "province": "uMhlanga",
      "country": "South Africa",
      "coordinates": null
    },
    {
      "id": 104,
      "type": "unknown",
      "name": "Greenfields",
      "address": "Settlers Wy, Greenfields, East London, 5201",
      "province": "Eastern Cape",
      "country": "South Africa",
      "coordinates": null
    },
    {
      "id": 105,
      "type": "unknown",
      "name": "Greenside",
      "address": "127 Greenway Rd, Greenside, Johannesburg, 2193",
      "province": "Gauteng",
      "country": "South Africa",
      "coordinates": null
    },
    {
      "id": 106,
      "type": "unknown",
      "name": "Grosvenor Crossing",
      "address": "0B William Nicol Dr, Bryanston, Sandton, 2191",
      "province": "Sandton",
      "country": "South Africa",
      "coordinates": null
    },
    {
      "id": 107,
      "type": "unknown",
      "name": "Harbour View",
      "address": "Breakwater Blvd, Victoria & Alfred Waterfront, Cape Town, 8002",
      "province": "Western Cape",
      "country": "South Africa",
      "coordinates": null
    },
    {
      "id": 108,
      "type": "unknown",
      "name": "Hatfield Sasol Delight",
      "address": "570 Jan Shoba St, Hatfield, Pretoria, 0083",
      "province": "Gauteng",
      "country": "South Africa",
      "coordinates": null
    },
    {
      "id": 109,
      "type": "unknown",
      "name": "Heidelberg FreshStop",
      "address": "1 Eksteen Str, Heidelberg, Western Cape, 6665",
      "province": "Western Cape",
      "country": "South Africa",
      "coordinates": null
    },
    {
      "id": 110,
      "type": "unknown",
      "name": "Hillcrest FreshStop",
      "address": "65 Old Main Rd, Hillcrest, 3610",
      "province": "Hillcrest",
      "country": "South Africa",
      "coordinates": null
    },
    {
      "id": 111,
      "type": "unknown",
      "name": "Hillfox Container",
      "address": "Cnr. Hendrik Potgieter Rd + Rhinoceros Rd, Weltevredenpark, Johannesburg, 1709",
      "province": "Gauteng",
      "country": "South Africa",
      "coordinates": null
    },
    {
      "id": 112,
      "type": "unknown",
      "name": "Hilltop",
      "address": "Hilltop Village, Ombika Str, Windhoek, Namibia",
      "province": "Windhoek",
      "country": "Namibia",
      "coordinates": null
    },
    {
      "id": 113,
      "type": "unknown",
      "name": "Hilton",
      "address": "1 Park Ln, Leonard, Hilton, 3245",
      "province": "Hilton",
      "country": "South Africa",
      "coordinates": null
    },
    {
      "id": 114,
      "type": "unknown",
      "name": "Hobie Beach FreshStop",
      "address": "1 Marine Dr, Summerstrand, Gqeberha, 6013",
      "province": "Eastern Cape",
      "country": "South Africa",
      "coordinates": null
    },
    {
      "id": 115,
      "type": "unknown",
      "name": "Hout Bay FreshStop",
      "address": "Cnr. The Promenade + Main Rd, Hout Bay, Cape Town, 7806",
      "province": "Western Cape",
      "country": "South Africa",
      "coordinates": null
    },
    {
      "id": 116,
      "type": "unknown",
      "name": "Howard Centre",
      "address": "Howard Dr, Pinelands, Cape Town, 7405",
      "province": "Western Cape",
      "country": "South Africa",
      "coordinates": null
    },
    {
      "id": 117,
      "type": "unknown",
      "name": "Hyde Park Exclusive Books",
      "address": "Cnr. Jan Smuts Ave + William Nicol Dr, Craighall, Johannesburg, 2196",
      "province": "Gauteng",
      "country": "South Africa",
      "coordinates": null
    },
    {
      "id": 118,
      "type": "unknown",
      "name": "Impala Motors FreshStop",
      "address": "161 Cowen Ntuli St, Middelburg, 1055",
      "province": "Middelburg",
      "country": "South Africa",
      "coordinates": null
    },
    {
      "id": 119,
      "type": "unknown",
      "name": "Independence Ave",
      "address": "Independence Ave, Windhoek, Namibia",
      "province": "Windhoek",
      "country": "Namibia",
      "coordinates": null
    },
    {
      "id": 120,
      "type": "unknown",
      "name": "Ivy Park FreshStop",
      "address": "Suid St, Mypark X9, Polokwane, 0699",
      "province": "Polokwane",
      "country": "South Africa",
      "coordinates": null
    },
    {
      "id": 121,
      "type": "unknown",
      "name": "Karaglen FreshStop",
      "address": "Cnr. Baker Rd + Harris Ave, Eden Glen, Edenvale, 1613",
      "province": "Edenvale",
      "country": "South Africa",
      "coordinates": null
    },
    {
      "id": 122,
      "type": "unknown",
      "name": "Keerom",
      "address": "30 Keerom St, Cape Town City Centre, Cape Town, 8000",
      "province": "Western Cape",
      "country": "South Africa",
      "coordinates": null
    },
    {
      "id": 123,
      "type": "unknown",
      "name": "Kenilworth FreshStop",
      "address": "305 Main Str, Kenilworth, Cape Town, 7708",
      "province": "Western Cape",
      "country": "South Africa",
      "coordinates": null
    },
    {
      "id": 124,
      "type": "unknown",
      "name": "Kensington",
      "address": "53 Adelaide Tambo Dr, Durban North, 4051",
      "province": "KwaZulu-Natal",
      "country": "South Africa",
      "coordinates": null
    },
    {
      "id": 125,
      "type": "unknown",
      "name": "Kimberley",
      "address": "67 Memorial Rd, Monument Heights, Kimberley, 8301",
      "province": "Kimberley",
      "country": "South Africa",
      "coordinates": null
    },
    {
      "id": 126,
      "type": "unknown",
      "name": "Kingfisher FreshStop",
      "address": "212 Kingfisher Dr, Fourways, Sandton, 2055",
      "province": "Sandton",
      "country": "South Africa",
      "coordinates": null
    },
    {
      "id": 127,
      "type": "unknown",
      "name": "Kingsway FreshStop",
      "address": "2 Gus Brown Rd, Warner Beach, Kingsburgh, 4126",
      "province": "Kingsburgh",
      "country": "South Africa",
      "coordinates": null
    },
    {
      "id": 128,
      "type": "unknown",
      "name": "Klein Windhoek",
      "address": "324 Sam Nujoma Dr, Windhoek, Namibia",
      "province": "Windhoek",
      "country": "Namibia",
      "coordinates": null
    },
    {
      "id": 129,
      "type": "unknown",
      "name": "Kleinmond",
      "address": "80 Main Rd, Kleinmond",
      "province": "Kleinmond",
      "country": "South Africa",
      "coordinates": null
    },
    {
      "id": 130,
      "type": "unknown",
      "name": "Knysna Food Lover's Market",
      "address": "Cnr. Waterfront Dr. + Tide Str, Knysna, 6571",
      "province": "Knysna",
      "country": "South Africa",
      "coordinates": null
    },
    {
      "id": 131,
      "type": "unknown",
      "name": "Knysna Waterfront Astron Energy",
      "address": "Waterfront Dr, Knysna Quays, Knysna, 6570",
      "province": "Knysna",
      "country": "South Africa",
      "coordinates": null
    },
    {
      "id": 132,
      "type": "unknown",
      "name": "Komatipoort FreshStop",
      "address": "19 Rissik Str, Komatipoort, 1340",
      "province": "Komatipoort",
      "country": "South Africa",
      "coordinates": null
    },
    {
      "id": 133,
      "type": "unknown",
      "name": "La Lucia",
      "address": "La Lucia Mall, William Campbell Dr, La Lucia, uMhlanga, 4051",
      "province": "uMhlanga",
      "country": "South Africa",
      "coordinates": null
    },
    {
      "id": 134,
      "type": "unknown",
      "name": "Laguna Mall",
      "address": "6 Delos St, Skiathos, Langebaan, 7357",
      "province": "Langebaan",
      "country": "South Africa",
      "coordinates": null
    },
    {
      "id": 135,
      "type": "unknown",
      "name": "Langenhoven FreshStop",
      "address": "Cnr. Dirk Opperman + Elias Motsoaledi St, Langenhoven Park, Bloemfontein, 9301",
      "province": "Bloemfontein",
      "country": "South Africa",
      "coordinates": null
    },
    {
      "id": 136,
      "type": "unknown",
      "name": "Leaping Frog",
      "address": "Leaping Frog Retail Centre, Cnr Winnie Mandela Dr & Mulbarton Rd",
      "province": "Cnr Winnie Mandela Dr & Mulbarton Rd",
      "country": "South Africa",
      "coordinates": null
    },
    {
      "id": 137,
      "type": "unknown",
      "name": "Lemon Tree FreshStop",
      "address": "Cnr. Ascot + Lincoln Ave, Newmarket Park, Alberton, 1448",
      "province": "Alberton",
      "country": "South Africa",
      "coordinates": null
    },
    {
      "id": 138,
      "type": "unknown",
      "name": "Liberty",
      "address": "1 Ameshoff St, Johannesburg, 2001",
      "province": "Gauteng",
      "country": "South Africa",
      "coordinates": null
    },
    {
      "id": 139,
      "type": "unknown",
      "name": "Linbro Park",
      "address": "12 Starfield Dr, Frankenwald, Sandton, 2090",
      "province": "Sandton",
      "country": "South Africa",
      "coordinates": null
    },
    {
      "id": 140,
      "type": "unknown",
      "name": "Linksfield Square",
      "address": "115 Club St, Linksfield, Johannesburg, 2192",
      "province": "Gauteng",
      "country": "South Africa",
      "coordinates": null
    },
    {
      "id": 141,
      "type": "unknown",
      "name": "Loftus Park",
      "address": "416 Kirkness St, Arcadia, Pretoria, 0007",
      "province": "Gauteng",
      "country": "South Africa",
      "coordinates": null
    },
    {
      "id": 142,
      "type": "unknown",
      "name": "Loop Street",
      "address": "4 Loop St, Cape Town City Centre, Cape Town, 8000",
      "province": "Western Cape",
      "country": "South Africa",
      "coordinates": null
    },
    {
      "id": 143,
      "type": "unknown",
      "name": "Lyndhurst (Adventure Motors) FreshStop",
      "address": "44 Johannesburg Rd, Lyndhurst, Johannesburg, 2192",
      "province": "Gauteng",
      "country": "South Africa",
      "coordinates": null
    },
    {
      "id": 144,
      "type": "unknown",
      "name": "Malanshof Astron Energy",
      "address": "Cnr Philip Le Roux Ave + Hans Schoeman St, Malanshof, Randburg",
      "province": "Randburg",
      "country": "South Africa",
      "coordinates": null
    },
    {
      "id": 145,
      "type": "unknown",
      "name": "Malmesbury",
      "address": "De Zwartland Werf Retail Centre, Piketberg St, Malmesbury, 7300",
      "province": "Malmesbury",
      "country": "South Africa",
      "coordinates": null
    },
    {
      "id": 146,
      "type": "unknown",
      "name": "Manor Motors FreshStop",
      "address": "25 Lynburn Rd, Lynnwood Manor, Pretoria, 0081",
      "province": "Gauteng",
      "country": "South Africa",
      "coordinates": null
    },
    {
      "id": 147,
      "type": "unknown",
      "name": "Marine Drive FreshStop",
      "address": "Marine Dr, Paarden Eiland, Cape Town, 7441",
      "province": "Western Cape",
      "country": "South Africa",
      "coordinates": null
    },
    {
      "id": 148,
      "type": "unknown",
      "name": "Marlands FreshStop",
      "address": "58 Barbara Rd, Marlands, Germiston, 1401",
      "province": "Germiston",
      "country": "South Africa",
      "coordinates": null
    },
    {
      "id": 149,
      "type": "unknown",
      "name": "Masakhane FreshStop",
      "address": "Bosmansdam Rd, Milnerton, Cape Town, 7441",
      "province": "Western Cape",
      "country": "South Africa",
      "coordinates": null
    },
    {
      "id": 150,
      "type": "unknown",
      "name": "McGee",
      "address": "54 Voortrekker St, Mashishing, 1120",
      "province": "Mashishing",
      "country": "South Africa",
      "coordinates": null
    },
    {
      "id": 151,
      "type": "unknown",
      "name": "Media Quarter",
      "address": "2 De Smidt St, Green Point, Cape Town, 8051",
      "province": "Western Cape",
      "country": "South Africa",
      "coordinates": null
    },
    {
      "id": 152,
      "type": "unknown",
      "name": "Medstone Medical",
      "address": "19 The High St, Umhlanga, Durban, 4319",
      "province": "KwaZulu-Natal",
      "country": "South Africa",
      "coordinates": null
    },
    {
      "id": 153,
      "type": "unknown",
      "name": "Melkbosstrand Sasol Delight",
      "address": "Birkenhead Dr, Melkbosstrand, Cape Town",
      "province": "Western Cape",
      "country": "South Africa",
      "coordinates": null
    },
    {
      "id": 154,
      "type": "unknown",
      "name": "Melkbosstrand FreshStop",
      "address": "6th Ave, Melkbosstrand, Cape Town, 7441",
      "province": "Western Cape",
      "country": "South Africa",
      "coordinates": null
    },
    {
      "id": 155,
      "type": "unknown",
      "name": "Melrose Arch",
      "address": "Cnr. Corlett Dr + M1 Highway, Birnam, Johannesburg, 2196",
      "province": "Gauteng",
      "country": "South Africa",
      "coordinates": null
    },
    {
      "id": 156,
      "type": "unknown",
      "name": "Menlyn",
      "address": "Cnr. Atterbury Rd + Lois Ave, Menlo Park, Pretoria, 0063",
      "province": "Gauteng",
      "country": "South Africa",
      "coordinates": null
    },
    {
      "id": 157,
      "type": "unknown",
      "name": "Merrow Down",
      "address": "Troupant Avenue, Magaliesview, Johannesburg, 2191",
      "province": "Gauteng",
      "country": "South Africa",
      "coordinates": null
    },
    {
      "id": 158,
      "type": "unknown",
      "name": "Middelburg Food Lover's Market",
      "address": "139 Keiskamma Drive, Umlaas St, &, Middelburg, 1055",
      "province": "Middelburg",
      "country": "South Africa",
      "coordinates": null
    },
    {
      "id": 159,
      "type": "unknown",
      "name": "Middelburg FreshStop",
      "address": "250 Cowen Ntuli St, Middelburg, 1050",
      "province": "Middelburg",
      "country": "South Africa",
      "coordinates": null
    },
    {
      "id": 160,
      "type": "unknown",
      "name": "Millys FreshStop",
      "address": "Farm De Kroon, N4, Machadadorp, 1170",
      "province": "Machadadorp",
      "country": "South Africa",
      "coordinates": null
    },
    {
      "id": 161,
      "type": "unknown",
      "name": "Moffett Retail Park Container",
      "address": "William Moffett Retail Park, William Moffett Expy, Fairview, Gqeberha, 6070",
      "province": "Eastern Cape",
      "country": "South Africa",
      "coordinates": null
    },
    {
      "id": 162,
      "type": "unknown",
      "name": "Montague Gardens FreshStop",
      "address": "Cnr. Montague Dr. + Freedom Way, Montague Gardens, Cape Town, 7441",
      "province": "Western Cape",
      "country": "South Africa",
      "coordinates": null
    },
    {
      "id": 163,
      "type": "unknown",
      "name": "Montana Food Lover's Market",
      "address": "555 Breed St, Montana Tuine, Montana, 0182",
      "province": "Montana",
      "country": "South Africa",
      "coordinates": null
    },
    {
      "id": 164,
      "type": "unknown",
      "name": "Monte",
      "address": "Cnr. William Nicol + Witkoppen, Fourways, 2191",
      "province": "Fourways",
      "country": "South Africa",
      "coordinates": null
    },
    {
      "id": 165,
      "type": "unknown",
      "name": "Monte Vista North FreshStop",
      "address": "N3 National Road, Harrismith, 9880",
      "province": "Harrismith",
      "country": "South Africa",
      "coordinates": null
    },
    {
      "id": 166,
      "type": "unknown",
      "name": "Monte Vista South FreshStop",
      "address": "N3 National Road, Harrismith, 9880",
      "province": "Harrismith",
      "country": "South Africa",
      "coordinates": null
    },
    {
      "id": 167,
      "type": "unknown",
      "name": "Monument Park Motors FreshStop",
      "address": "50 Elephant Rd, Monument Park, Pretoria, 0105",
      "province": "Gauteng",
      "country": "South Africa",
      "coordinates": null
    },
    {
      "id": 168,
      "type": "unknown",
      "name": "Morning Glen Food Lover's Market",
      "address": "Cnr. Kelvin Dr. + Bowling Ave, Sandton, 2057",
      "province": "Sandton",
      "country": "South Africa",
      "coordinates": null
    },
    {
      "id": 169,
      "type": "unknown",
      "name": "Mountain Mill Food Lover's Market",
      "address": "13 Mountain Mill Dr, Hospital Hill, Worcester, 6850",
      "province": "Worcester",
      "country": "South Africa",
      "coordinates": null
    },
    {
      "id": 170,
      "type": "unknown",
      "name": "Mozart Sasol Delight",
      "address": "Cnr Paul Kruger ave + Mozart rd, Honeydew Ridge, Roodepot, 1724",
      "province": "Roodepot",
      "country": "South Africa",
      "coordinates": null
    },
    {
      "id": 171,
      "type": "unknown",
      "name": "Mount Edgecombe",
      "address": "13 Flanders Dr, Mount Edgecombe Country Estate 2, Mount Edgecombe, 4302",
      "province": "Mount Edgecombe",
      "country": "South Africa",
      "coordinates": null
    },
    {
      "id": 172,
      "type": "unknown",
      "name": "MTN 14th Ave",
      "address": "114 14th Ave, Fairlands, Johannesburg, 2196",
      "province": "Gauteng",
      "country": "South Africa",
      "coordinates": null
    },
    {
      "id": 173,
      "type": "unknown",
      "name": "Mulbarton Panorama",
      "address": "Panorama Shopping centre, Cnr Kliprivier Dr & Jordie Str, Mulbarton, Johannesburg",
      "province": "Gauteng",
      "country": "South Africa",
      "coordinates": null
    },
    {
      "id": 174,
      "type": "unknown",
      "name": "Nahoon",
      "address": "92 Old Transkei Rd, Nahoon, East London",
      "province": "Eastern Cape",
      "country": "South Africa",
      "coordinates": null
    },
    {
      "id": 175,
      "type": "unknown",
      "name": "Nelspruit Food Lover's Market",
      "address": "Andrew St, 1201 Madiba Dr, Nelspruit, 1201",
      "province": "Nelspruit",
      "country": "South Africa",
      "coordinates": null
    },
    {
      "id": 176,
      "type": "unknown",
      "name": "Nelspruit R40 FreshStop",
      "address": "R40, Riverside park, Mbombela, 1201",
      "province": "Mbombela",
      "country": "South Africa",
      "coordinates": null
    },
    {
      "id": 177,
      "type": "unknown",
      "name": "New Road North",
      "address": "N1 Highway + New Rd, Midridge Park, Midrand, 1685",
      "province": "Midrand",
      "country": "South Africa",
      "coordinates": null
    },
    {
      "id": 178,
      "type": "unknown",
      "name": "New Road South",
      "address": "N1 Highway + New Rd, Midridge Park, Midrand, 1686",
      "province": "Midrand",
      "country": "South Africa",
      "coordinates": null
    },
    {
      "id": 179,
      "type": "unknown",
      "name": "Newmarket Mall Food Lover's Market",
      "address": "9 Heidelberg Rd, Newmarket Park, Alberton, 1449",
      "province": "Alberton",
      "country": "South Africa",
      "coordinates": null
    },
    {
      "id": 180,
      "type": "unknown",
      "name": "Noordheuwel Sasol Delight",
      "address": "Cnr Robert Broom Dr & Van Ooedt st,Noordheuwel, Krugersdrop ,1739",
      "province": "Krugersdrop ,1739",
      "country": "South Africa",
      "coordinates": null
    },
    {
      "id": 181,
      "type": "unknown",
      "name": "Northcliff FreshStop",
      "address": "131 Gordon Rd, Northcliff, Johannesburg, 2195",
      "province": "Gauteng",
      "country": "South Africa",
      "coordinates": null
    },
    {
      "id": 182,
      "type": "unknown",
      "name": "Northstar FreshStop",
      "address": "199 Witkoppen Rd, Lone Hill, Sandton, 2090",
      "province": "Sandton",
      "country": "South Africa",
      "coordinates": null
    },
    {
      "id": 183,
      "type": "unknown",
      "name": "Nottingham Road",
      "address": "Cnr. Main Rd + Nottingham Road, 3280",
      "province": "",
      "country": "South Africa",
      "coordinates": null
    },
    {
      "id": 184,
      "type": "unknown",
      "name": "Nova Motors FreshStop",
      "address": "44 Watermeyer St, Witbank, Emalahleni, 1034",
      "province": "Emalahleni",
      "country": "South Africa",
      "coordinates": null
    },
    {
      "id": 185,
      "type": "unknown",
      "name": "Oakdale FreshStop",
      "address": "261 Durban Rd, Bellville, Cape Town, 7535",
      "province": "Western Cape",
      "country": "South Africa",
      "coordinates": null
    },
    {
      "id": 186,
      "type": "unknown",
      "name": "Oakdene Astron Energy",
      "address": "44 Oak Ave, Oakdene, Johannesburg South, 2190",
      "province": "Gauteng",
      "country": "South Africa",
      "coordinates": null
    },
    {
      "id": 187,
      "type": "unknown",
      "name": "Oaklands",
      "address": "Astron Energy, Cnr 17th Ave & 4th St, Oaklands, Johannesburg",
      "province": "Gauteng",
      "country": "South Africa",
      "coordinates": null
    },
    {
      "id": 188,
      "type": "unknown",
      "name": "Oaklands FreshStop",
      "address": "Cnr. 17th Avenue + 4th Str, Oaklands, Johannesburg, 2010",
      "province": "Gauteng",
      "country": "South Africa",
      "coordinates": null
    },
    {
      "id": 189,
      "type": "unknown",
      "name": "Ocean Square",
      "address": "4 Ocean Way, Sunset Beach, Cape Town, 7441",
      "province": "Western Cape",
      "country": "South Africa",
      "coordinates": null
    },
    {
      "id": 190,
      "type": "unknown",
      "name": "Olivedale Sasol Delight",
      "address": "Cnr Jacaranda Ave + Amsterdam Dr, Olivedale, Randburg",
      "province": "Randburg",
      "country": "South Africa",
      "coordinates": null
    },
    {
      "id": 191,
      "type": "unknown",
      "name": "Optenhorst",
      "address": "Optenhorst Village Shopping Center, Cnr Main Rd + Optenhorst St, Paarl",
      "province": "Paarl",
      "country": "South Africa",
      "coordinates": null
    },
    {
      "id": 192,
      "type": "unknown",
      "name": "Orchards N4 FreshStop",
      "address": "Valencia Mall N, 4 Jerepico St, Mbombela, 0200",
      "province": "Mbombela",
      "country": "South Africa",
      "coordinates": null
    },
    {
      "id": 193,
      "type": "unknown",
      "name": "Oudtshoorn FLM",
      "address": "Klein Karoo Markt, Cnr Rademeyer & Langehoven rd, Oudtshoorn",
      "province": "Oudtshoorn",
      "country": "South Africa",
      "coordinates": null
    },
    {
      "id": 194,
      "type": "unknown",
      "name": "Paarl FreshStop",
      "address": "393 Main Rd, Lemoenkloof, Paarl, 7646",
      "province": "Paarl",
      "country": "South Africa",
      "coordinates": null
    },
    {
      "id": 195,
      "type": "unknown",
      "name": "Paarl Food Lover's Market",
      "address": "11919 Cecelia Str, Green Pastures, Paarl, 7624",
      "province": "Paarl",
      "country": "South Africa",
      "coordinates": null
    },
    {
      "id": 196,
      "type": "unknown",
      "name": "Palms",
      "address": "142 Sir Lowry Rd, Woodstock, Cape Town, 7915",
      "province": "Western Cape",
      "country": "South Africa",
      "coordinates": null
    },
    {
      "id": 197,
      "type": "unknown",
      "name": "Panorama",
      "address": "Panorama Shopping Centre, 101 Uys Krige Dr, Panorama, Cape Town",
      "province": "Western Cape",
      "country": "South Africa",
      "coordinates": null
    },
    {
      "id": 198,
      "type": "unknown",
      "name": "Park Square",
      "address": "11 Park Avenue Umhlanga, Durban, 4321",
      "province": "KwaZulu-Natal",
      "country": "South Africa",
      "coordinates": null
    },
    {
      "id": 199,
      "type": "unknown",
      "name": "Parklands Food Lover's Market",
      "address": "Emporium Centre, Sandown Rd, Milnerton Rural, Cape Town, 7441",
      "province": "Western Cape",
      "country": "South Africa",
      "coordinates": null
    },
    {
      "id": 200,
      "type": "unknown",
      "name": "Patcyn",
      "address": "52 Frere Rd, East London, 5217",
      "province": "Eastern Cape",
      "country": "South Africa",
      "coordinates": null
    },
    {
      "id": 201,
      "type": "unknown",
      "name": "Pepper Grove",
      "address": "Peppergrove Mall",
      "province": "",
      "country": "",
      "coordinates": null
    },
    {
      "id": 202,
      "type": "unknown",
      "name": "Perridgevale",
      "address": "Link Rd, Perridgevale, Gqeberha, 6001",
      "province": "Eastern Cape",
      "country": "South Africa",
      "coordinates": null
    },
    {
      "id": 203,
      "type": "unknown",
      "name": "Phalaborwa FreshStop",
      "address": "51 Essenhout St, Phalaborwa, 1390",
      "province": "Phalaborwa",
      "country": "South Africa",
      "coordinates": null
    },
    {
      "id": 204,
      "type": "unknown",
      "name": "Pinehurst Food Lover's Market",
      "address": "Cnr. Pinehurst Dr + Brackenfell Blvd, Cape Town, 7561",
      "province": "Western Cape",
      "country": "South Africa",
      "coordinates": null
    },
    {
      "id": 205,
      "type": "unknown",
      "name": "Plett",
      "address": "FreshStop, 19 Main Str, Plettenberg bay",
      "province": "Plettenberg bay",
      "country": "South Africa",
      "coordinates": null
    },
    {
      "id": 206,
      "type": "unknown",
      "name": "Posthouse FreshStop",
      "address": "Cnr. Main Rd + Posthouse Str, Bryanston, Sandton, 2191",
      "province": "Sandton",
      "country": "South Africa",
      "coordinates": null
    },
    {
      "id": 207,
      "type": "unknown",
      "name": "Prosperity",
      "address": "Cnr. Feld Str & Thorer Str, Windhoek Central",
      "province": "Windhoek",
      "country": "Namibia",
      "coordinates": null
    },
    {
      "id": 208,
      "type": "unknown",
      "name": "Q-Square",
      "address": "72 High Str, Worcester Central, 6849",
      "province": "Worcester Central",
      "country": "South Africa",
      "coordinates": null
    },
    {
      "id": 209,
      "type": "unknown",
      "name": "Queenswood",
      "address": "Cnr. Stead Ave + Soutpansberg Rd, Queenswood, Pretoria, 0186",
      "province": "Gauteng",
      "country": "South Africa",
      "coordinates": null
    },
    {
      "id": 210,
      "type": "unknown",
      "name": "R72 Port Alfred FreshStop",
      "address": "70 Albany Rd, Port Alfred, 6170",
      "province": "Port Alfred",
      "country": "South Africa",
      "coordinates": null
    },
    {
      "id": 211,
      "type": "unknown",
      "name": "Rabie Street Motors FreshStop",
      "address": "Cnr. Rabie Str + Second Ave, Fontainebleau, Randburg, 2194",
      "province": "Randburg",
      "country": "South Africa",
      "coordinates": null
    },
    {
      "id": 212,
      "type": "unknown",
      "name": "Rapid Auto FreshStop",
      "address": "52 Paul Smit Rd, Ravenswood, Boksburg, 1459",
      "province": "Boksburg",
      "country": "South Africa",
      "coordinates": null
    },
    {
      "id": 213,
      "type": "unknown",
      "name": "Ravensview FreshStop",
      "address": "Cnr. Ravenscourt + Link Rd, Parklands, Cape Town, 7441",
      "province": "Western Cape",
      "country": "South Africa",
      "coordinates": null
    },
    {
      "id": 214,
      "type": "unknown",
      "name": "Regent Road",
      "address": "4 Regent Rd, Sea Point, Cape Town, 8060",
      "province": "Western Cape",
      "country": "South Africa",
      "coordinates": null
    },
    {
      "id": 215,
      "type": "unknown",
      "name": "Rennies House Food Lover's Market",
      "address": "19 Ameshoff St, Braamfontein, Johannesburg, 2017",
      "province": "Gauteng",
      "country": "South Africa",
      "coordinates": null
    },
    {
      "id": 216,
      "type": "unknown",
      "name": "Republic Rd FreshStop",
      "address": "86 Republic Rd, Ferndale, Randburg, 2194",
      "province": "Randburg",
      "country": "South Africa",
      "coordinates": null
    },
    {
      "id": 217,
      "type": "unknown",
      "name": "Riley Road Sasol Delight",
      "address": "Cnr Riley & Harper Rd, Bedfordview, Germiston, 2007",
      "province": "Germiston",
      "country": "South Africa",
      "coordinates": null
    },
    {
      "id": 218,
      "type": "unknown",
      "name": "Riviersonderend Astron Energy",
      "address": "1d Main Rd, Riviersonderend, 7250",
      "province": "Riviersonderend",
      "country": "South Africa",
      "coordinates": null
    },
    {
      "id": 219,
      "type": "unknown",
      "name": "Rivonia Boulevard",
      "address": "363 Rivonia Blvd, Rivonia, Johannesburg, 2128",
      "province": "Gauteng",
      "country": "South Africa",
      "coordinates": null
    },
    {
      "id": 220,
      "type": "unknown",
      "name": "Rocky Crest",
      "address": "10005, Otjomuise Rd, Windhoek",
      "province": "Windhoek",
      "country": "Namibia",
      "coordinates": null
    },
    {
      "id": 221,
      "type": "unknown",
      "name": "Rosebank Link Food Lover's Market",
      "address": "173 Oxford Rd, Johannesburg, 2196",
      "province": "Gauteng",
      "country": "South Africa",
      "coordinates": null
    },
    {
      "id": 222,
      "type": "unknown",
      "name": "Ruhamah FreshStop",
      "address": "Cnr. Ruhamah + Mimosa St, Helderkruin, Roodepoort, 1724",
      "province": "Roodepoort",
      "country": "South Africa",
      "coordinates": null
    },
    {
      "id": 223,
      "type": "unknown",
      "name": "Ruimsig FreshStop",
      "address": "Cnr. Dorreen + Hendrik Potgieter Rd, Ruimsig, Gauteng, 1732",
      "province": "Gauteng",
      "country": "South Africa",
      "coordinates": null
    },
    {
      "id": 224,
      "type": "unknown",
      "name": "Safari FreshStop",
      "address": "54 Jao Albassini St, Louis Trichardt, 0920",
      "province": "Louis Trichardt",
      "country": "South Africa",
      "coordinates": null
    },
    {
      "id": 225,
      "type": "unknown",
      "name": "Saints Hockey",
      "address": "40 Peter Place, Lyme Park, Sandton, 2129",
      "province": "Sandton",
      "country": "South Africa",
      "coordinates": null
    },
    {
      "id": 226,
      "type": "unknown",
      "name": "Saints Pool",
      "address": "40 Peter Place, Lyme Park, Sandton, 2129",
      "province": "Sandton",
      "country": "South Africa",
      "coordinates": null
    },
    {
      "id": 227,
      "type": "unknown",
      "name": "Salt River FreshStop",
      "address": "261 Victoria Road, Salt River, Cape Town, 7925",
      "province": "Western Cape",
      "country": "South Africa",
      "coordinates": null
    },
    {
      "id": 228,
      "type": "unknown",
      "name": "Sandown",
      "address": "Sandown Centre, Sandown Road, Parklands",
      "province": "Parklands",
      "country": "South Africa",
      "coordinates": null
    },
    {
      "id": 229,
      "type": "unknown",
      "name": "Sandton Gate",
      "address": "7 Minerva Ave, Glenadrienne, Sandton, 2196",
      "province": "Sandton",
      "country": "South Africa",
      "coordinates": null
    },
    {
      "id": 230,
      "type": "unknown",
      "name": "Redstar Astron Energy",
      "address": "292 Durban Rd, Korsten, Gqeberha, 6020",
      "province": "KwaZulu-Natal",
      "country": "South Africa",
      "coordinates": null
    },
    {
      "id": 231,
      "type": "unknown",
      "name": "Somerset Mall",
      "address": "Centenery Dr, Firgrove Rural, Cape Town, 7130",
      "province": "Western Cape",
      "country": "South Africa",
      "coordinates": null
    },
    {
      "id": 232,
      "type": "unknown",
      "name": "Somerset West Food Lover's Market",
      "address": "Somerset Value Centre, Centenary Dr, Somerset Mall, Cape Town, 7130",
      "province": "Western Cape",
      "country": "South Africa",
      "coordinates": null
    },
    {
      "id": 233,
      "type": "unknown",
      "name": "Southgate",
      "address": "Cnr of Tacoma Str + Mandume Ndemufayo Ave, Windhoek",
      "province": "Windhoek",
      "country": "Namibia",
      "coordinates": null
    },
    {
      "id": 234,
      "type": "unknown",
      "name": "SSISA Academy",
      "address": "15 Boundary Rd, Newlands, Cape Town, 7700",
      "province": "Western Cape",
      "country": "South Africa",
      "coordinates": null
    },
    {
      "id": 235,
      "type": "unknown",
      "name": "St. Bernard Sasol Delight",
      "address": "960 St Bernard Dr, Garsfontein, Pretoria, 0081",
      "province": "Gauteng",
      "country": "South Africa",
      "coordinates": null
    },
    {
      "id": 236,
      "type": "unknown",
      "name": "St Francis",
      "address": "4 Assisi Dr, St Francis",
      "province": "St Francis",
      "country": "South Africa",
      "coordinates": null
    },
    {
      "id": 237,
      "type": "unknown",
      "name": "St Georges",
      "address": "Cnr. Rodericks + The Village Rd, Lynnwood, Pretoria, 0081",
      "province": "Gauteng",
      "country": "South Africa",
      "coordinates": null
    },
    {
      "id": 238,
      "type": "unknown",
      "name": "Standerton FreshStop",
      "address": "7 Beyers Naude Str, Standerton, 2430",
      "province": "Standerton",
      "country": "South Africa",
      "coordinates": null
    },
    {
      "id": 239,
      "type": "unknown",
      "name": "Star Services FreshStop",
      "address": "Cnr. Hennie Alberts + JG Strijdom Rd, Brackenhurst, Alberton, 1451",
      "province": "Alberton",
      "country": "South Africa",
      "coordinates": null
    },
    {
      "id": 240,
      "type": "unknown",
      "name": "Steenberg",
      "address": "Steenberg Village, Reddam Ave, Tokai, Cape Town, 7945",
      "province": "Western Cape",
      "country": "South Africa",
      "coordinates": null
    },
    {
      "id": 241,
      "type": "unknown",
      "name": "Stellendale FreshStop",
      "address": "Cnr. M12 + Range Rd, Highbury, Cape Town, 7580",
      "province": "Western Cape",
      "country": "South Africa",
      "coordinates": null
    },
    {
      "id": 242,
      "type": "unknown",
      "name": "Steyn City",
      "address": "Cnr. Cedar Road + Douw Steyn Drive, Fourways, Riversideview, 2191",
      "province": "Riversideview",
      "country": "South Africa",
      "coordinates": null
    },
    {
      "id": 243,
      "type": "unknown",
      "name": "Struben Valley Sasol Delight",
      "address": "Cnr Christiaan De Wet Rd + Wilhelmina Ave, Allen's Nek, Roodepoort, 1709",
      "province": "Roodepoort",
      "country": "South Africa",
      "coordinates": null
    },
    {
      "id": 244,
      "type": "unknown",
      "name": "Summerfield FreshStop",
      "address": "Cnr. Platina Ave + Robin Str, Randburg, 2194",
      "province": "Randburg",
      "country": "South Africa",
      "coordinates": null
    },
    {
      "id": 245,
      "type": "unknown",
      "name": "Summerstrand Sasol Delight",
      "address": "Cnr Strandfontein Rd + 2nd Ave, Summerstrand, Gqeberha, 6001",
      "province": "Eastern Cape",
      "country": "South Africa",
      "coordinates": null
    },
    {
      "id": 246,
      "type": "unknown",
      "name": "Summit Place",
      "address": "221 Garsfontein Rd, De Beers, Pretoria, 0181",
      "province": "Gauteng",
      "country": "South Africa",
      "coordinates": null
    },
    {
      "id": 247,
      "type": "unknown",
      "name": "Sunny Hill FreshStop",
      "address": "Farm Avenham, N1 Off Ramp, Bloemfontein, 9300",
      "province": "Bloemfontein",
      "country": "South Africa",
      "coordinates": null
    },
    {
      "id": 248,
      "type": "unknown",
      "name": "Sunridge",
      "address": "Kragga Kamma Rd, Sunridge, Gqeberha, 6001",
      "province": "Eastern Cape",
      "country": "South Africa",
      "coordinates": null
    },
    {
      "id": 249,
      "type": "unknown",
      "name": "Sunward Park FreshStop",
      "address": "300 Kingfisher Ave, Boksburg, Johannesburg, 1459",
      "province": "Gauteng",
      "country": "South Africa",
      "coordinates": null
    },
    {
      "id": 250,
      "type": "unknown",
      "name": "Table Bay Mall",
      "address": "Cnr. R27 + Berkshire Blvd, Sunningdale, Cape Town, 7441",
      "province": "Western Cape",
      "country": "South Africa",
      "coordinates": null
    },
    {
      "id": 251,
      "type": "unknown",
      "name": "The Deck on Beach",
      "address": "Cnr. Beach Rd + Rothesay Pl, Mouille Point, Cape Town, 8005",
      "province": "Western Cape",
      "country": "South Africa",
      "coordinates": null
    },
    {
      "id": 252,
      "type": "unknown",
      "name": "The Greenery",
      "address": "54 Oost St, Polokwane Ext 4, Polokwane, 0700",
      "province": "Polokwane",
      "country": "South Africa",
      "coordinates": null
    },
    {
      "id": 253,
      "type": "unknown",
      "name": "The Grove Mall",
      "address": "Chasie Str, Windhoek, Namibia",
      "province": "Windhoek",
      "country": "Namibia",
      "coordinates": null
    },
    {
      "id": 254,
      "type": "unknown",
      "name": "The Halyard",
      "address": "4 Martin Hammerschlag Way, Foreshore, Cape Town, 8000",
      "province": "Western Cape",
      "country": "South Africa",
      "coordinates": null
    },
    {
      "id": 255,
      "type": "unknown",
      "name": "The Marc Food Lover's Market",
      "address": "129 Rivonia Rd, Sandown, Sandton, 2031",
      "province": "Sandton",
      "country": "South Africa",
      "coordinates": null
    },
    {
      "id": 256,
      "type": "unknown",
      "name": "The Ranch FreshStop",
      "address": "N1 North, South Of Polokwane, Polokwane, 0700",
      "province": "Polokwane",
      "country": "South Africa",
      "coordinates": null
    },
    {
      "id": 257,
      "type": "unknown",
      "name": "The Verge",
      "address": "86 Linksfield Rd, Dowerglen, Johannesburg, 1610",
      "province": "Gauteng",
      "country": "South Africa",
      "coordinates": null
    },
    {
      "id": 258,
      "type": "unknown",
      "name": "The Wedge",
      "address": "255 Rivonia Rd, Sandton, 2001",
      "province": "Sandton",
      "country": "South Africa",
      "coordinates": null
    },
    {
      "id": 259,
      "type": "unknown",
      "name": "The Well",
      "address": "The Well, 1 Albertina Way, Dolphin Coast, 4031",
      "province": "Dolphin Coast",
      "country": "South Africa",
      "coordinates": null
    },
    {
      "id": 260,
      "type": "unknown",
      "name": "Toby's Motors FreshStop",
      "address": "Cnr. Main Rd + 8th Ave, Gqeberha, 6070",
      "province": "Eastern Cape",
      "country": "South Africa",
      "coordinates": null
    },
    {
      "id": 261,
      "type": "unknown",
      "name": "Tokai Container",
      "address": "Food Lover's Market, Tokai on Main, 382 Main Rd, Dreyersdal, Cape Town, 7806",
      "province": "Western Cape",
      "country": "South Africa",
      "coordinates": null
    },
    {
      "id": 262,
      "type": "unknown",
      "name": "Toti Centre",
      "address": "407 Andrew Zondo Rd, Amazimtoti, Durban, 4126",
      "province": "KwaZulu-Natal",
      "country": "South Africa",
      "coordinates": null
    },
    {
      "id": 263,
      "type": "unknown",
      "name": "Towers",
      "address": "Standard Bank Towers Building, Cnr. DF Malan + Hertzog Bvld, Cape Town City Centre, Cape Town, 8000",
      "province": "Western Cape",
      "country": "South Africa",
      "coordinates": null
    },
    {
      "id": 264,
      "type": "unknown",
      "name": "Town Bush Road",
      "address": "532 Town Bush Rd, Chase Valley Downs, Pietermaritzburg, 3201",
      "province": "Pietermaritzburg",
      "country": "South Africa",
      "coordinates": null
    },
    {
      "id": 265,
      "type": "unknown",
      "name": "Tyger Manor",
      "address": "Cnr Willie Van Schoor + Bill Bezuidenhout Ave, Belville, Cape Town",
      "province": "Western Cape",
      "country": "South Africa",
      "coordinates": null
    },
    {
      "id": 266,
      "type": "unknown",
      "name": "Urban Quarter",
      "address": "1297 Park St, Hatfield, Pretoria, 0028",
      "province": "Gauteng",
      "country": "South Africa",
      "coordinates": null
    },
    {
      "id": 267,
      "type": "unknown",
      "name": "Vaal FreshStop",
      "address": "58 Vaal Rd, Brackendowns, Alberton, 1454",
      "province": "Alberton",
      "country": "South Africa",
      "coordinates": null
    },
    {
      "id": 268,
      "type": "unknown",
      "name": "N2 Astron Energy",
      "address": "1 Main Rd, Knysna Central, Knysna, 6570",
      "province": "Knysna",
      "country": "South Africa",
      "coordinates": null
    },
    {
      "id": 269,
      "type": "unknown",
      "name": "Vasco Astron Energy",
      "address": "8 Vasco Blvd, Vasco Estate, Cape Town, 7460",
      "province": "Western Cape",
      "country": "South Africa",
      "coordinates": null
    },
    {
      "id": 270,
      "type": "unknown",
      "name": "Vergelegen Food Lover's Market",
      "address": "Cnr Old Sir Lowrys Pass Road + Bizweni Ave, Heldeberg Rural, Somerset West",
      "province": "Somerset West",
      "country": "South Africa",
      "coordinates": null
    },
    {
      "id": 271,
      "type": "unknown",
      "name": "Village Square",
      "address": "43 Oxford Str, Durbanville, Cape Town, 7550",
      "province": "Western Cape",
      "country": "South Africa",
      "coordinates": null
    },
    {
      "id": 272,
      "type": "unknown",
      "name": "Village View",
      "address": "Cnr. Van Buuren Rd + Kloof Rd, Bedfordview, Germiston, 2008",
      "province": "Germiston",
      "country": "South Africa",
      "coordinates": null
    },
    {
      "id": 273,
      "type": "unknown",
      "name": "Villeria FreshStop",
      "address": "1052 Nico Smith St, Villieria, Pretoria, 0186",
      "province": "Gauteng",
      "country": "South Africa",
      "coordinates": null
    },
    {
      "id": 274,
      "type": "unknown",
      "name": "Virginia Circle",
      "address": "4 Mackeurtan Pl, Virginia, Durban North, 4051",
      "province": "KwaZulu-Natal",
      "country": "South Africa",
      "coordinates": null
    },
    {
      "id": 275,
      "type": "unknown",
      "name": "Walmer",
      "address": "Cnr. 9th Ave + Main Rd, Walmer, Gqeberha, 6070",
      "province": "Eastern Cape",
      "country": "South Africa",
      "coordinates": null
    },
    {
      "id": 276,
      "type": "unknown",
      "name": "Wapadrand FreshStop",
      "address": "886 Wapadrand Rd, Pretoria, 0081",
      "province": "Gauteng",
      "country": "South Africa",
      "coordinates": null
    },
    {
      "id": 277,
      "type": "unknown",
      "name": "Waterfall FreshStop",
      "address": "89 Jan Smuts Ave, Blairgowrie, Randburg, 2125",
      "province": "Randburg",
      "country": "South Africa",
      "coordinates": null
    },
    {
      "id": 278,
      "type": "unknown",
      "name": "Waterkloof Glen FreshStop",
      "address": "374 Roslyn Ave, Waterkloof Glen, Pretoria, 0181",
      "province": "Gauteng",
      "country": "South Africa",
      "coordinates": null
    },
    {
      "id": 279,
      "type": "unknown",
      "name": "Wavelands FreshStop",
      "address": "57 St Francis Str, Jeffreys Bay, 6330",
      "province": "Jeffreys Bay",
      "country": "South Africa",
      "coordinates": null
    },
    {
      "id": 280,
      "type": "unknown",
      "name": "Wendywood FreshStop",
      "address": "5 Western Service Rd, Wendywood, Johannesburg, 2144",
      "province": "Gauteng",
      "country": "South Africa",
      "coordinates": null
    },
    {
      "id": 281,
      "type": "unknown",
      "name": "Wernhil",
      "address": "Wernhil Park, Windhoek, Namibia",
      "province": "Windhoek",
      "country": "Namibia",
      "coordinates": null
    },
    {
      "id": 282,
      "type": "unknown",
      "name": "West Coast Food Lover's Market",
      "address": "Weskus Mall, 110 Saldanha Rd, Vredenburg, 7380",
      "province": "Vredenburg",
      "country": "South Africa",
      "coordinates": null
    },
    {
      "id": 283,
      "type": "unknown",
      "name": "Westering FreshStop",
      "address": "513 Cape Rd, Linton Grange, Gqeberha, 6025",
      "province": "Eastern Cape",
      "country": "South Africa",
      "coordinates": null
    },
    {
      "id": 284,
      "type": "unknown",
      "name": "Western Motors FreshStop",
      "address": "79 Western Ave, Vincent, East London, 6070",
      "province": "Eastern Cape",
      "country": "South Africa",
      "coordinates": null
    },
    {
      "id": 285,
      "type": "unknown",
      "name": "Whale Coast Mall Food Lover's Market",
      "address": "Cove Cres, Sandbaai, 7200",
      "province": "Sandbaai",
      "country": "South Africa",
      "coordinates": null
    },
    {
      "id": 286,
      "type": "unknown",
      "name": "Whiteriver FreshStop",
      "address": "Cnr. Tom Lawrence + Theo Kleynhans Str, White River, 1240",
      "province": "White River",
      "country": "South Africa",
      "coordinates": null
    },
    {
      "id": 287,
      "type": "unknown",
      "name": "William Moffet FreshStop",
      "address": "Cnr. William Moffett Expy + Overbaakens Rd, Overbaakens, Gqeberha, 6065",
      "province": "Eastern Cape",
      "country": "South Africa",
      "coordinates": null
    },
    {
      "id": 288,
      "type": "unknown",
      "name": "Willowbridge Container",
      "address": "Food Lovers Market, Carl Cronje Dr, Willowbridge Village, Bellville, Cape Town, 7530",
      "province": "Western Cape",
      "country": "South Africa",
      "coordinates": null
    },
    {
      "id": 289,
      "type": "unknown",
      "name": "Winch Motors FreshStop",
      "address": "161 Buitengracht Str, Cape Town City Centre, Cape Town, 8001",
      "province": "Western Cape",
      "country": "South Africa",
      "coordinates": null
    },
    {
      "id": 290,
      "type": "unknown",
      "name": "Windermere FreshStop",
      "address": "Cnr. M17 + Florida Rd, Morningside, Durban, 4001",
      "province": "KwaZulu-Natal",
      "country": "South Africa",
      "coordinates": null
    },
    {
      "id": 291,
      "type": "unknown",
      "name": "Witkoppen Motors FreshStop",
      "address": "2 Pieter Wenning Rd, Witkoppen, 2068",
      "province": "Witkoppen",
      "country": "South Africa",
      "coordinates": null
    },
    {
      "id": 292,
      "type": "unknown",
      "name": "Wonderpark FreshStop",
      "address": "254 Heinrich Ave, Karenpark, Pretoria, 0184",
      "province": "Gauteng",
      "country": "South Africa",
      "coordinates": null
    },
    {
      "id": 293,
      "type": "unknown",
      "name": "Woodmead",
      "address": "5 Woodlands Dr, Woodmead, Sandton, 2191",
      "province": "Sandton",
      "country": "South Africa",
      "coordinates": null
    },
    {
      "id": 294,
      "type": "unknown",
      "name": "Woodmead",
      "address": "5 Woodlands Dr, Woodmead, Sandton, 2191",
      "province": "Sandton",
      "country": "South Africa",
      "coordinates": null
    },
    {
      "id": 295,
      "type": "unknown",
      "name": "Xanadu FreshStop",
      "address": "Xanadu Blvd, Xanadu Eco Park, Hartbeespoort, 0216",
      "province": "Hartbeespoort",
      "country": "South Africa",
      "coordinates": null
    },
    {
      "id": 296,
      "type": "unknown",
      "name": "Zambesi FreshStop",
      "address": "9 Sefako Makgatho Dr, Sinoville, Pretoria, 0182",
      "province": "Gauteng",
      "country": "South Africa",
      "coordinates": null
    },
    {
      "id": 297,
      "type": "unknown",
      "name": "Zebetiela South",
      "address": "Sasol, Zebetiela South, N1, Zebetiela",
      "province": "Zebetiela",
      "country": "South Africa",
      "coordinates": null
    }
  ]
}